time,.header.seq,.header.stamp.secs,.header.stamp.nsecs,.header.frame_id,.pose.position.x,.pose.position.y,.pose.position.z,.pose.orientation.x,.pose.orientation.y,.pose.orientation.z,.pose.orientation.w
2019/10/22/08:46:50.093055,4771,1571759210,28091000,/map,-206.2080078125,-370.92401123046875,-11.798083305358887,0.015391470162217206,-0.006774941739698798,-0.15684138061530933,0.9874806246895952
2019/10/22/08:46:50.200019,4772,1571759210,128940000,/map,-205.82151794433594,-371.0620422363281,-11.784876823425293,0.014845480641826302,-0.006156395977665112,-0.15734485495758752,0.9874129364715934
2019/10/22/08:46:50.287996,4773,1571759210,229804000,/map,-205.43597412109375,-371.1940612792969,-11.792496681213379,0.01427146611419756,-0.006530086717582554,-0.15846528932254933,0.9872398063805636
2019/10/22/08:46:50.391592,4774,1571759210,330682000,/map,-205.0518798828125,-371.3329162597656,-11.771867752075195,0.013840252059581195,-0.006759457472690819,-0.15999695620608714,0.9869973308790603
2019/10/22/08:46:50.495619,4775,1571759210,431529000,/map,-204.6587677001953,-371.467529296875,-11.769376754760742,0.014117790528313048,-0.00615891450110558,-0.1620679343468509,0.9866593841946224
2019/10/22/08:46:50.612318,4776,1571759210,532386000,/map,-204.24575805664062,-371.6257019042969,-11.741877555847168,0.014122780619362688,-0.005066731205540858,-0.16447116130260578,0.9862677691186306
2019/10/22/08:46:50.696264,4777,1571759210,633287000,/map,-203.85494995117188,-371.7725830078125,-11.74614143371582,0.014033726417168544,-0.0052433630669253585,-0.16648182491992544,0.9859307093492563
2019/10/22/08:46:50.796685,4778,1571759210,734127000,/map,-203.44580078125,-371.9229736328125,-11.74630355834961,0.013763688816090313,-0.006686226015283696,-0.1691625024574453,0.9854693820785003
2019/10/22/08:46:50.890740,4779,1571759210,834972000,/map,-203.05450439453125,-372.070556640625,-11.730596542358398,0.014240360419074609,-0.006004859964025446,-0.17174930547594194,0.985019456589807
2019/10/22/08:46:50.988825,4780,1571759210,935832000,/map,-202.64883422851562,-372.2198181152344,-11.729214668273926,0.015243597128940564,-0.004867319514352221,-0.17439834874883,0.9845451527995032
2019/10/22/08:46:51.101907,4781,1571759211,36685000,/map,-202.25730895996094,-372.3789978027344,-11.725166320800781,0.015652697781597464,-0.004810620826568494,-0.17686925256721053,0.984098124414297
2019/10/22/08:46:51.195664,4782,1571759211,137624000,/map,-201.86346435546875,-372.5315246582031,-11.706548690795898,0.01560602819488684,-0.004722322933241332,-0.17921024088428075,0.983675678825238
2019/10/22/08:46:51.305124,4783,1571759211,238440000,/map,-201.4886016845703,-372.6808776855469,-11.696368217468262,0.01652386795622738,-0.004470273802514147,-0.1817861554390812,0.9831890825932588
2019/10/22/08:46:51.404667,4784,1571759211,339384000,/map,-201.10372924804688,-372.84063720703125,-11.696741104125977,0.01655844844116442,-0.004852202426635657,-0.18421632738375285,0.9827342563694798
2019/10/22/08:46:51.501954,4785,1571759211,440151000,/map,-200.71658325195312,-373.0013122558594,-11.683366775512695,0.01677014185351489,-0.0045275539055691,-0.18607455193302452,0.9823820665712344
2019/10/22/08:46:51.617131,4786,1571759211,540989000,/map,-200.34371948242188,-373.1693420410156,-11.671902656555176,0.016974762573069072,-0.0034166165891847803,-0.18812624679826417,0.9819922094559961
2019/10/22/08:46:51.708358,4787,1571759211,641853000,/map,-199.98159790039062,-373.3294372558594,-11.666166305541992,0.0163037193440461,-0.0031822319389237545,-0.1901173655272815,0.9816208277437901
2019/10/22/08:46:51.808312,4788,1571759211,743263000,/map,-199.5999298095703,-373.4928894042969,-11.66154956817627,0.016584662910550413,-0.003409702473746512,-0.19201800503932887,0.981245335594468
2019/10/22/08:46:51.902344,4789,1571759211,843575000,/map,-199.20909118652344,-373.66314697265625,-11.659150123596191,0.016722520397674006,-0.003777365771419063,-0.1937963419346915,0.9808919750268683
2019/10/22/08:46:52.014127,4790,1571759211,944431000,/map,-198.84071350097656,-373.8332214355469,-11.658629417419434,0.017372340880214044,-0.004369566772329623,-0.19506581966411413,0.9806265520866397
2019/10/22/08:46:52.121825,4791,1571759212,45292000,/map,-198.45909118652344,-374.0065002441406,-11.655355453491211,0.018101504167183785,-0.004876516169582627,-0.1967483263421127,0.980274783526798
2019/10/22/08:46:52.236267,4792,1571759212,146152000,/map,-198.0864715576172,-374.16375732421875,-11.644556999206543,0.019586767471542872,-0.00477545598485671,-0.19840018331776652,0.979913731314971
2019/10/22/08:46:52.335302,4793,1571759212,247087000,/map,-197.71090698242188,-374.33392333984375,-11.645947456359863,0.019991043268761048,-0.004660295418923323,-0.19958506004758897,0.9796654753748523
2019/10/22/08:46:52.446898,4794,1571759212,347885000,/map,-197.32363891601562,-374.5154113769531,-11.635607719421387,0.020371546727740695,-0.004915222377331307,-0.2006241341785756,0.9794441267668094
2019/10/22/08:46:52.518662,4795,1571759212,448740000,/map,-196.93748474121094,-374.6958312988281,-11.623703002929688,0.020336550792758742,-0.004817688435053276,-0.20190222916549913,0.9791826716389533
2019/10/22/08:46:52.611495,4796,1571759212,549595000,/map,-196.56771850585938,-374.8619689941406,-11.615429878234863,0.020061428561119976,-0.00439512070610203,-0.20305359048859703,0.9789522263051221
2019/10/22/08:46:52.719193,4797,1571759212,651303000,/map,-196.1953125,-375.0303955078125,-11.604376792907715,0.02022441615120922,-0.0039670473773509695,-0.20384664633535765,0.9787858705070667
2019/10/22/08:46:52.814214,4798,1571759212,751329000,/map,-195.82972717285156,-375.20550537109375,-11.607662200927734,0.02075322350270679,-0.0038686174502000842,-0.20436175784376462,0.9786677727626863
2019/10/22/08:46:52.905109,4799,1571759212,852183000,/map,-195.4683380126953,-375.38201904296875,-11.597383499145508,0.021170463695371507,-0.003985714291938215,-0.20456177821199262,0.9786165768283581
2019/10/22/08:46:53.011047,4800,1571759212,953043000,/map,-195.0994415283203,-375.556640625,-11.601459503173828,0.022645437557398722,-0.004500583529846508,-0.20532679003315898,0.9784210945193301
2019/10/22/08:46:53.132834,4801,1571759213,53899000,/map,-194.7386932373047,-375.72509765625,-11.591917037963867,0.02256513546043106,-0.004220135593132281,-0.2053791907010326,0.9784132016403995
2019/10/22/08:46:53.236594,4802,1571759213,154767000,/map,-194.36685180664062,-375.9024658203125,-11.588610649108887,0.022928875625970492,-0.004307761844615176,-0.20550808444272853,0.9783772979168616
2019/10/22/08:46:53.347714,4803,1571759213,255628000,/map,-193.9936065673828,-376.068603515625,-11.590200424194336,0.022984190713135764,-0.004851752146642053,-0.2054168733807189,0.9783926081123363
2019/10/22/08:46:53.440881,4804,1571759213,356546000,/map,-193.62661743164062,-376.24468994140625,-11.589731216430664,0.02219698247919661,-0.004593551163600062,-0.20508824069600592,0.9784809690457668
2019/10/22/08:46:53.549595,4805,1571759213,457347000,/map,-193.24801635742188,-376.4252624511719,-11.580120086669922,0.02115745709122961,-0.004900402782115558,-0.2050530800650016,0.9785098785489403
2019/10/22/08:46:53.628712,4806,1571759213,558214000,/map,-192.8860321044922,-376.5939025878906,-11.567331314086914,0.020566509977372475,-0.004874650027679682,-0.20469414571812855,0.9785977535040552
2019/10/22/08:46:53.725500,4807,1571759213,659205000,/map,-192.52088928222656,-376.77239990234375,-11.574092864990234,0.01985894968923164,-0.00526092536138249,-0.2040473063482246,0.9787454426732297
2019/10/22/08:46:53.848721,4808,1571759213,759967000,/map,-192.1549530029297,-376.94720458984375,-11.563735961914062,0.019836480450734724,-0.005546160721858864,-0.20359493004101265,0.9788385252972883
2019/10/22/08:46:53.935972,4809,1571759213,860799000,/map,-191.7921905517578,-377.1058349609375,-11.56174087524414,0.019769772475020448,-0.004997863849302188,-0.20317846651794072,0.978929358123786
2019/10/22/08:46:54.041839,4810,1571759213,961642000,/map,-191.4287872314453,-377.2796630859375,-11.551263809204102,0.01928941359134272,-0.004953933508741095,-0.20250403084515348,0.9790789010889562
2019/10/22/08:46:54.189400,4811,1571759214,62523000,/map,-191.05538940429688,-377.44891357421875,-11.554173469543457,0.019562355008292363,-0.006337762033776462,-0.20156930645664523,0.9792583733282652
2019/10/22/08:46:54.272159,4812,1571759214,163366000,/map,-190.68887329101562,-377.60736083984375,-11.542938232421875,0.020060258651014545,-0.0053352558164516525,-0.2012402093577256,0.9793219589113102
2019/10/22/08:46:54.351495,4813,1571759214,264235000,/map,-190.3167266845703,-377.7838439941406,-11.547222137451172,0.02007415537463637,-0.005028543892448635,-0.20038081733450264,0.979499499783779
2019/10/22/08:46:54.455822,4814,1571759214,365087000,/map,-189.946533203125,-377.9518127441406,-11.535721778869629,0.01935864931707112,-0.004611222551522267,-0.19940995622051047,0.9797140647573315
2019/10/22/08:46:54.555239,4815,1571759214,465976000,/map,-189.57174682617188,-378.12091064453125,-11.540567398071289,0.019174324722441023,-0.004813115148733272,-0.19851851624736008,0.9798977384915989
2019/10/22/08:46:54.658637,4816,1571759214,566815000,/map,-189.2063446044922,-378.28790283203125,-11.530159950256348,0.018909042435972166,-0.004561857673154589,-0.19776748701256905,0.9800559466935843
2019/10/22/08:46:54.756222,4817,1571759214,667673000,/map,-188.85411071777344,-378.4463195800781,-11.524208068847656,0.02006221968160415,-0.0045691218347463595,-0.19713672989566508,0.9801600584563471
2019/10/22/08:46:54.850116,4818,1571759214,768585000,/map,-188.49493408203125,-378.6007080078125,-11.525182723999023,0.02235148613146576,-0.004088789675871694,-0.19644245166054883,0.9802520370049196
2019/10/22/08:46:54.959661,4819,1571759214,869402000,/map,-188.12442016601562,-378.7699279785156,-11.511137962341309,0.02293098184875948,-0.0035920942935061106,-0.19547262065489449,0.9804344554861106
2019/10/22/08:46:55.043904,4820,1571759214,970307000,/map,-187.76815795898438,-378.9259338378906,-11.49614429473877,0.02369348177029819,-0.004190018426794518,-0.1943855383227863,0.9806300653957865
2019/10/22/08:46:55.166217,4821,1571759215,71310000,/map,-187.40538024902344,-379.0775451660156,-11.503213882446289,0.02388770719945823,-0.005063282189339338,-0.19333444488813575,0.9808290029551637
2019/10/22/08:46:55.256422,4822,1571759215,172251000,/map,-187.04298400878906,-379.23748779296875,-11.498547554016113,0.022791119492919686,-0.004513883656791192,-0.1925435146396963,0.9810133458301092
2019/10/22/08:46:55.338008,4823,1571759215,272830000,/map,-186.68472290039062,-379.3983459472656,-11.480863571166992,0.02181629193812881,-0.004272921459512979,-0.19149667413789884,0.9812414663793998
2019/10/22/08:46:55.481499,4824,1571759215,373699000,/map,-186.3158721923828,-379.5590515136719,-11.473698616027832,0.02179647079966815,-0.004721698262733232,-0.1900443426811609,0.9815221684919198
2019/10/22/08:46:55.568410,4825,1571759215,474551000,/map,-185.95626831054688,-379.72100830078125,-11.473044395446777,0.022522357222021505,-0.005374950092429504,-0.18888633473373698,0.9817259321661633
2019/10/22/08:46:55.673367,4826,1571759215,575423000,/map,-185.58872985839844,-379.88079833984375,-11.473073959350586,0.024829362505250092,-0.006757073161648782,-0.18766439562820478,0.9818960837753512
2019/10/22/08:46:55.788974,4827,1571759215,676540000,/map,-185.22970581054688,-380.03497314453125,-11.464936256408691,0.02632710147754298,-0.007940710694021748,-0.18622724798120585,0.9821218055571375
2019/10/22/08:46:55.860921,4828,1571759215,777137000,/map,-184.87612915039062,-380.1881408691406,-11.469112396240234,0.028093577494589902,-0.008233286992912554,-0.1850243484485248,0.9822977931208269
2019/10/22/08:46:55.974618,4829,1571759215,878021000,/map,-184.5133819580078,-380.355224609375,-11.453094482421875,0.029292351876608242,-0.007988628397188419,-0.18381345507327826,0.982492113796285
2019/10/22/08:46:56.090901,4830,1571759215,978853000,/map,-184.15716552734375,-380.5034484863281,-11.443320274353027,0.02992946297538348,-0.007408626894513116,-0.1829156096737069,0.9826450118080482
2019/10/22/08:46:56.184598,4831,1571759216,79725000,/map,-183.80035400390625,-380.6402587890625,-11.424221992492676,0.030935319705720287,-0.006180651156864833,-0.18195584070364426,0.9828005278691154
2019/10/22/08:46:56.301808,4832,1571759216,180584000,/map,-183.43931579589844,-380.796630859375,-11.418191909790039,0.03131115766248482,-0.006196340411975457,-0.18086056637107153,0.9829906776278547
2019/10/22/08:46:56.398575,4833,1571759216,281436000,/map,-183.0864715576172,-380.9433288574219,-11.403395652770996,0.03169037011510494,-0.006320200627415192,-0.17950222315884076,0.9832266917588387
2019/10/22/08:46:56.492626,4834,1571759216,382318000,/map,-182.73406982421875,-381.08612060546875,-11.411870956420898,0.03202608133789836,-0.0059012490152647425,-0.1782828381111075,0.9834402549261683
2019/10/22/08:46:56.622596,4835,1571759216,483418000,/map,-182.3965301513672,-381.2281494140625,-11.39221477508545,0.03218476054477511,-0.005509486551990244,-0.17747384145752454,0.9835836631140833
2019/10/22/08:46:56.756757,4836,1571759216,584041000,/map,-182.07470703125,-381.3505554199219,-11.386728286743164,0.03129372956399871,-0.005424149559851573,-0.17683362676469788,0.9837281888493239
2019/10/22/08:46:56.858850,4837,1571759216,684925000,/map,-181.76393127441406,-381.4793395996094,-11.382002830505371,0.02993974233324983,-0.005097721330889354,-0.1757293840220357,0.983969922638638
2019/10/22/08:46:57.015155,4838,1571759216,791277000,/map,-181.47439575195312,-381.596435546875,-11.37717342376709,0.02912236536022174,-0.005132186035402116,-0.17512441589590705,0.9841021224748178
2019/10/22/08:46:57.138533,4839,1571759216,987490000,/map,-180.97491455078125,-381.80059814453125,-11.372636795043945,0.027872936435030343,-0.006340156369693555,-0.1737990582921837,0.9843661865222955
2019/10/22/08:46:57.243109,4840,1571759217,88322000,/map,-180.73870849609375,-381.900390625,-11.36976432800293,0.02771465116483214,-0.0064899588407375045,-0.17319599924618262,0.9844759643537131
2019/10/22/08:46:57.334529,4841,1571759217,189719000,/map,-180.52928161621094,-381.97906494140625,-11.369977951049805,0.02828280122121004,-0.0065673455646946466,-0.17251551428335754,0.9845787680317223
2019/10/22/08:46:57.422141,4842,1571759217,290048000,/map,-180.339111328125,-382.04888916015625,-11.376694679260254,0.028850038635671343,-0.007200881547384054,-0.1717867890805548,0.9846852906756828
2019/10/22/08:46:57.511590,4843,1571759217,390901000,/map,-180.17340087890625,-382.1162414550781,-11.377819061279297,0.029588252232312703,-0.007218151984716202,-0.17119917590674946,0.9847655943322817
2019/10/22/08:46:57.618247,4844,1571759217,491775000,/map,-180.02108764648438,-382.176513671875,-11.37466812133789,0.029893656123234205,-0.007427348830616956,-0.17041374998573308,0.9848910384548811
2019/10/22/08:46:57.676679,4845,1571759217,592630000,/map,-179.8827667236328,-382.23388671875,-11.373212814331055,0.029649557604191287,-0.007374506903484814,-0.16993156434773227,0.9849821236043519
2019/10/22/08:46:57.770087,4846,1571759217,693527000,/map,-179.76040649414062,-382.28167724609375,-11.377812385559082,0.029374229116694288,-0.007120777656346064,-0.16914262082712028,0.985128023664489
2019/10/22/08:46:57.855748,4847,1571759217,794344000,/map,-179.656982421875,-382.3248291015625,-11.366462707519531,0.0296056460363823,-0.007749785163488016,-0.16876946290026196,0.9851803464062024
2019/10/22/08:46:57.971395,4848,1571759217,895231000,/map,-179.56365966796875,-382.35711669921875,-11.364903450012207,0.03056393713686993,-0.010721348093064666,-0.16893997563690216,0.9850939970751845
2019/10/22/08:46:58.066607,4849,1571759217,996221000,/map,-179.46751403808594,-382.3851013183594,-11.374284744262695,0.03177276142674032,-0.013853193985019512,-0.1684317750767351,0.9851037091556568
2019/10/22/08:46:58.180034,4850,1571759218,96927000,/map,-179.3875732421875,-382.4163818359375,-11.379453659057617,0.0319616787120932,-0.01523198105101174,-0.16744459251282448,0.9852455258895524
2019/10/22/08:46:58.273951,4851,1571759218,197783000,/map,-179.30360412597656,-382.4505920410156,-11.37082290649414,0.031126158282993945,-0.015189650466058028,-0.16628189106071026,0.9854698217066492
2019/10/22/08:46:58.373764,4852,1571759218,298645000,/map,-179.22496032714844,-382.4717102050781,-11.36909294128418,0.030423186148888153,-0.014285986806572448,-0.16490634686996652,0.985736393305794
2019/10/22/08:46:58.497626,4853,1571759218,399579000,/map,-179.1331329345703,-382.50689697265625,-11.365751266479492,0.029075606257635153,-0.012852031755571734,-0.16305706038851583,0.9861043704689483
2019/10/22/08:46:58.589818,4854,1571759218,500394000,/map,-179.05284118652344,-382.5417175292969,-11.360067367553711,0.02705698702763833,-0.010257395774067854,-0.1604603388897499,0.9866180542278288
2019/10/22/08:46:58.668431,4855,1571759218,601228000,/map,-178.96627807617188,-382.5734558105469,-11.36722183227539,0.024818229536652893,-0.008042517432889165,-0.15830541372725465,0.9870454748291237
2019/10/22/08:46:58.770676,4856,1571759218,702092000,/map,-178.8719940185547,-382.6074523925781,-11.367105484008789,0.02461612417848099,-0.007388292067331558,-0.15598323948730747,0.9874252825251149
2019/10/22/08:46:58.883025,4857,1571759218,802945000,/map,-178.78604125976562,-382.64202880859375,-11.363161087036133,0.025315687113400993,-0.00794070863571834,-0.15341742430585784,0.9878052212109912
2019/10/22/08:46:58.979499,4858,1571759218,903837000,/map,-178.6918182373047,-382.67559814453125,-11.356932640075684,0.02646545309453545,-0.008290962509585286,-0.15070862560626375,0.9881891265851069
2019/10/22/08:46:59.083585,4859,1571759219,4678000,/map,-178.59716796875,-382.7079162597656,-11.35114574432373,0.027197684601834526,-0.008185712037869134,-0.1480168715430252,0.9885768992897558
2019/10/22/08:46:59.175763,4860,1571759219,105528000,/map,-178.50982666015625,-382.7389221191406,-11.352363586425781,0.027618699493067195,-0.008957645578598968,-0.14525447448966308,0.9889682025549312
2019/10/22/08:46:59.272045,4861,1571759219,206393000,/map,-178.41835021972656,-382.7685852050781,-11.35689926147461,0.028281163342714577,-0.00962856679628065,-0.14254190372819472,0.9893377947814256
2019/10/22/08:46:59.380058,4862,1571759219,307247000,/map,-178.3283233642578,-382.8092346191406,-11.347743034362793,0.026950146851652045,-0.009379054562197888,-0.13949769380037338,0.9898111518590661
2019/10/22/08:46:59.478340,4863,1571759219,408178000,/map,-178.2440643310547,-382.834716796875,-11.341772079467773,0.02637312695870417,-0.0092037306923417,-0.13652027526631552,0.9902433862222823
2019/10/22/08:46:59.578093,4864,1571759219,508986000,/map,-178.15386962890625,-382.8618469238281,-11.352678298950195,0.025158793721781397,-0.00933977980150687,-0.13378388817468614,0.9906470990602998
2019/10/22/08:46:59.678752,4865,1571759219,609837000,/map,-178.0732879638672,-382.8876953125,-11.33292007446289,0.02466994620861085,-0.008637959571385516,-0.13069772736936586,0.9910776374578281
2019/10/22/08:46:59.775139,4866,1571759219,710694000,/map,-177.97781372070312,-382.91290283203125,-11.336321830749512,0.02425642140536191,-0.008726428170129604,-0.1271193820337588,0.9915523880175734
2019/10/22/08:46:59.887948,4867,1571759219,811558000,/map,-177.89205932617188,-382.93878173828125,-11.332953453063965,0.02403199724870051,-0.008397898634467877,-0.12368842996037428,0.991994511426702
2019/10/22/08:46:59.976607,4868,1571759219,912427000,/map,-177.80711364746094,-382.9668273925781,-11.327690124511719,0.023900265111679163,-0.008286455924799655,-0.1201709203955214,0.9924308851839965
2019/10/22/08:47:00.074180,4869,1571759220,13281000,/map,-177.72628784179688,-382.992431640625,-11.327251434326172,0.02417349501289174,-0.00754583063067964,-0.11594552207420411,0.9929326958509801
2019/10/22/08:47:00.170577,4870,1571759220,114131000,/map,-177.64508056640625,-383.01678466796875,-11.327092170715332,0.024161314345143393,-0.007526566757742236,-0.11194308780768537,0.9933923327538002
2019/10/22/08:47:00.303472,4871,1571759220,214992000,/map,-177.56109619140625,-383.0447998046875,-11.330238342285156,0.023623087838811962,-0.007286231278372912,-0.10797310739069033,0.9938464009267812
2019/10/22/08:47:00.400727,4872,1571759220,315915000,/map,-177.46893310546875,-383.06390380859375,-11.32322883605957,0.024267849184770842,-0.007594732468005089,-0.10367726740166369,0.9942858823089104
2019/10/22/08:47:00.507389,4873,1571759220,416769000,/map,-177.38511657714844,-383.0908203125,-11.323770523071289,0.02473573513527135,-0.0076219592616211945,-0.09938679747058544,0.9947121762765713
2019/10/22/08:47:00.582664,4874,1571759220,517577000,/map,-177.3053741455078,-383.10711669921875,-11.315292358398438,0.025313994554652993,-0.007644611402038922,-0.0946079622089887,0.9951633509544356
2019/10/22/08:47:00.720306,4875,1571759220,618434000,/map,-177.2284393310547,-383.1229248046875,-11.317708969116211,0.026271869182985092,-0.008038628390952691,-0.08979561855753433,0.9955811951976062
2019/10/22/08:47:00.809751,4876,1571759220,719353000,/map,-177.14273071289062,-383.1398620605469,-11.3130464553833,0.026461047369957386,-0.008090481980647586,-0.08494783557888477,0.9960011156137669
2019/10/22/08:47:00.907862,4877,1571759220,820171000,/map,-177.06790161132812,-383.1594543457031,-11.3089017868042,0.02615498421033352,-0.008258679745126141,-0.08015810218145741,0.9964047318557312
2019/10/22/08:47:01.015152,4878,1571759220,921030000,/map,-176.98158264160156,-383.1680908203125,-11.30662727355957,0.026065510208194177,-0.008429115500103248,-0.07530039830140656,0.9967845249627031
2019/10/22/08:47:01.104463,4879,1571759221,21908000,/map,-176.90110778808594,-383.1867980957031,-11.312767028808594,0.025241596504475505,-0.008806864142996808,-0.07034092054219787,0.9971647084845855
2019/10/22/08:47:01.213140,4880,1571759221,122746000,/map,-176.8258819580078,-383.1968994140625,-11.310273170471191,0.024768626286048413,-0.00875955966432711,-0.06575879161436751,0.9974896323229668
2019/10/22/08:47:01.321787,4881,1571759221,223599000,/map,-176.7511444091797,-383.2073669433594,-11.307849884033203,0.024724111041339848,-0.008545343173888036,-0.06113079128692969,0.997786912020743
2019/10/22/08:47:01.406314,4882,1571759221,325031000,/map,-176.66603088378906,-383.22271728515625,-11.300178527832031,0.02352181009826745,-0.009229076033289315,-0.056331364676701426,0.9980923434026199
2019/10/22/08:47:01.495800,4883,1571759221,425331000,/map,-176.5907745361328,-383.2287902832031,-11.304944038391113,0.023049666082091923,-0.009498912205694113,-0.05239749692675615,0.998315073449371
2019/10/22/08:47:01.613325,4884,1571759221,526193000,/map,-176.51148986816406,-383.2391662597656,-11.294927597045898,0.02193940716056379,-0.009120231634285594,-0.048986078562071114,0.9985168240422846
2019/10/22/08:47:01.699326,4885,1571759221,627046000,/map,-176.43930053710938,-383.2364807128906,-11.296244621276855,0.019910123316938345,-0.008485978999234913,-0.0460145589252638,0.9987062809038713
2019/10/22/08:47:01.800091,4886,1571759221,727914000,/map,-176.36398315429688,-383.2469787597656,-11.293261528015137,0.016917320878328403,-0.007766706417584005,-0.043334564939280326,0.9988871798192456
2019/10/22/08:47:01.908988,4887,1571759221,828773000,/map,-176.30685424804688,-383.2513122558594,-11.276143074035645,0.013362563720563622,-0.006965016625799927,-0.04113931340120875,0.9990397826548717
2019/10/22/08:47:02.016560,4888,1571759221,929664000,/map,-176.25131225585938,-383.26580810546875,-11.266140937805176,0.010417030615842806,-0.005445842718357214,-0.038533238042290884,0.9991881793917559
2019/10/22/08:47:02.097388,4889,1571759222,30498000,/map,-176.2054443359375,-383.2681884765625,-11.249932289123535,0.01027524346135715,-0.0041753282482385615,-0.03667095969977459,0.99926584386765
2019/10/22/08:47:02.208956,4890,1571759222,131391000,/map,-176.16078186035156,-383.2749938964844,-11.238275527954102,0.012581045391930628,-0.0034794742720435073,-0.034834134337343135,0.9993078572895363
2019/10/22/08:47:02.307301,4891,1571759222,232214000,/map,-176.11419677734375,-383.2805480957031,-11.228031158447266,0.016442675268556296,-0.0033518340773048792,-0.03319871228271996,0.9993078850590044
2019/10/22/08:47:02.422800,4892,1571759222,333076000,/map,-176.06092834472656,-383.28668212890625,-11.237476348876953,0.02046944655235361,-0.003919637170776013,-0.03166696156726152,0.9992811625100253
2019/10/22/08:47:02.519391,4893,1571759222,433929000,/map,-176.02162170410156,-383.28546142578125,-11.237295150756836,0.024123251064432666,-0.004153217709823138,-0.030421985036335236,0.9992373703816256
2019/10/22/08:47:02.624098,4894,1571759222,535019000,/map,-175.96751403808594,-383.2869873046875,-11.245087623596191,0.026301808387463297,-0.0046030905172493,-0.029023739214454246,0.999222021872642
2019/10/22/08:47:02.737047,4895,1571759222,635656000,/map,-175.9226531982422,-383.2918701171875,-11.256542205810547,0.027415557705559094,-0.005367095706642391,-0.027611425498050634,0.9992282975683457
2019/10/22/08:47:02.846256,4896,1571759222,736556000,/map,-175.87921142578125,-383.291748046875,-11.256786346435547,0.02802586140949676,-0.005997033511526523,-0.02670254771680205,0.9992324857743313
2019/10/22/08:47:02.933267,4897,1571759222,837378000,/map,-175.82794189453125,-383.2966003417969,-11.257332801818848,0.028143160259101338,-0.006242879271366971,-0.025407028319354503,0.999261463232228
2019/10/22/08:47:03.053205,4898,1571759222,938428000,/map,-175.77410888671875,-383.3031005859375,-11.255468368530273,0.028731872287941447,-0.007604382922760964,-0.02418169645868735,0.9992656796025636
2019/10/22/08:47:03.142645,4899,1571759223,39097000,/map,-175.71185302734375,-383.29815673828125,-11.256417274475098,0.029187921745746106,-0.0074617160663307805,-0.02345665634613111,0.9992708207941274
2019/10/22/08:47:03.244490,4900,1571759223,139948000,/map,-175.63446044921875,-383.3031005859375,-11.255794525146484,0.0289832691874348,-0.008765663758030765,-0.02229904713123285,0.9992926927297772
2019/10/22/08:47:03.356977,4901,1571759223,240835000,/map,-175.5335235595703,-383.3053283691406,-11.282904624938965,0.027421606024961742,-0.01059034431767354,-0.02133561633553107,0.9993401280874434
2019/10/22/08:47:03.434310,4902,1571759223,341680000,/map,-175.40408325195312,-383.3084411621094,-11.290602684020996,0.024991788529795386,-0.012539986334494727,-0.020069740990733234,0.9994075068486215
2019/10/22/08:47:03.524053,4903,1571759223,442535000,/map,-175.24508666992188,-383.310546875,-11.285048484802246,0.02166291403148797,-0.0133848091168479,-0.01812113221908794,0.9995114754757286
2019/10/22/08:47:03.643204,4904,1571759223,543397000,/map,-175.0590057373047,-383.3321838378906,-11.248787879943848,0.019916633818301957,-0.011940947030496519,-0.016030655077974038,0.9996018005081492
2019/10/22/08:47:03.716810,4905,1571759223,644256000,/map,-174.8540802001953,-383.34295654296875,-11.22983169555664,0.020422382230928907,-0.011766059244330641,-0.014766195481529892,0.9996131479851964
2019/10/22/08:47:03.819854,4906,1571759223,745129000,/map,-174.62466430664062,-383.3491516113281,-11.227641105651855,0.021103205218229695,-0.011977069672606148,-0.014467627272240467,0.999600866492565
2019/10/22/08:47:03.910783,4907,1571759223,845981000,/map,-174.36651611328125,-383.363037109375,-11.230974197387695,0.02079359052492244,-0.012720181210210194,-0.014949891492793329,0.9995910785553335
2019/10/22/08:47:04.033685,4908,1571759223,946834000,/map,-174.06871032714844,-383.3843994140625,-11.22449016571045,0.019546743480377403,-0.013584987710436985,-0.016396994140873585,0.9995821684640857
2019/10/22/08:47:04.156566,4909,1571759224,47733000,/map,-173.7448272705078,-383.4066162109375,-11.211664199829102,0.018504667243011256,-0.013226691196578889,-0.01862204856290991,0.9995678322342793
2019/10/22/08:47:04.295198,4910,1571759224,148580000,/map,-173.4113311767578,-383.4333801269531,-11.191588401794434,0.017371954402528166,-0.012986481439713605,-0.021485049785181388,0.9995338709297352
2019/10/22/08:47:04.408780,4911,1571759224,249425000,/map,-173.05543518066406,-383.4598083496094,-11.182836532592773,0.017119291854134196,-0.01311990703898033,-0.024632985727113522,0.9994638632286158
2019/10/22/08:47:04.583488,4912,1571759224,350322000,/map,-172.6645050048828,-383.49420166015625,-11.176244735717773,0.016917372408847872,-0.013198041245467347,-0.028517943244089836,0.9993629676604943
2019/10/22/08:47:04.687004,4913,1571759224,552006000,/map,-171.84666442871094,-383.5858459472656,-11.153705596923828,0.016227563247466225,-0.012144349847493874,-0.03926866918928088,0.9990230991213036
2019/10/22/08:47:04.816161,4914,1571759224,652883000,/map,-171.4134521484375,-383.6356201171875,-11.132888793945312,0.01522457966277129,-0.011393214217128916,-0.04575967165327649,0.9987714750102141
2019/10/22/08:47:04.887587,4915,1571759224,753740000,/map,-170.96832275390625,-383.7001037597656,-11.109182357788086,0.014350211875510905,-0.011226244599263954,-0.0526223593650851,0.9984482611263227
2019/10/22/08:47:04.981855,4916,1571759224,854588000,/map,-170.51443481445312,-383.7630615234375,-11.102970123291016,0.012610088159069272,-0.011128253992537465,-0.06035683173733745,0.9980351699726462
2019/10/22/08:47:05.045856,4917,1571759224,955812000,/map,-170.04685974121094,-383.83636474609375,-11.084959030151367,0.0121713107263189,-0.010980000812367512,-0.06851713454404684,0.9975152635680503
2019/10/22/08:47:05.121959,4918,1571759225,56593000,/map,-169.57838439941406,-383.91595458984375,-11.067380905151367,0.01160817070985029,-0.010102356144795719,-0.0781478273159598,0.996823008291286
2019/10/22/08:47:05.219291,4919,1571759225,157172000,/map,-169.09707641601562,-383.99591064453125,-11.053711891174316,0.012215435752484795,-0.010671678028543422,-0.086809204962025,0.9960928974504804
2019/10/22/08:47:05.317160,4920,1571759225,258051000,/map,-168.61785888671875,-384.0911560058594,-11.046806335449219,0.01383271721650769,-0.010507414771440793,-0.09571754860828262,0.9952569522779783
2019/10/22/08:47:05.413422,4921,1571759225,358887000,/map,-168.13510131835938,-384.1880187988281,-11.048445701599121,0.01596323469931945,-0.009890502474602806,-0.10461432591353205,0.9943355549875463
2019/10/22/08:47:05.534484,4922,1571759225,459776000,/map,-167.6470184326172,-384.291259765625,-11.032472610473633,0.016922325549260243,-0.009952581877851321,-0.11297141100199151,0.9934042688191896
2019/10/22/08:47:05.642988,4923,1571759225,560612000,/map,-167.15798950195312,-384.4285583496094,-11.015243530273438,0.016737854487723094,-0.00973882467062524,-0.1203570384149194,0.9925417788814597
2019/10/22/08:47:05.724463,4924,1571759225,661475000,/map,-166.6795196533203,-384.5597229003906,-10.99476432800293,0.017743417384564773,-0.009107155943041187,-0.12678718858509663,0.9917294185718368
2019/10/22/08:47:05.815747,4925,1571759225,762457000,/map,-166.21206665039062,-384.6931457519531,-10.982941627502441,0.01770629157683057,-0.009095182727835308,-0.13311828530257408,0.9909002406942113
2019/10/22/08:47:05.921442,4926,1571759225,863220000,/map,-165.73260498046875,-384.8334045410156,-10.987791061401367,0.01804334261310856,-0.009442184314043886,-0.13959045954754115,0.9899998921949597
2019/10/22/08:47:06.025348,4927,1571759225,964051000,/map,-165.26414489746094,-384.9815673828125,-10.983391761779785,0.01890216109100242,-0.009515898924785325,-0.14633851639904213,0.9890081873229716
2019/10/22/08:47:06.132225,4928,1571759226,64914000,/map,-164.79351806640625,-385.12811279296875,-10.982036590576172,0.019225322865201705,-0.009743340823363953,-0.15311739134659305,0.9879729342130495
2019/10/22/08:47:06.223479,4929,1571759226,165788000,/map,-164.32626342773438,-385.29058837890625,-10.954787254333496,0.01954711937810584,-0.009525830706032181,-0.15904090854480837,0.9870325010264962
2019/10/22/08:47:06.329998,4930,1571759226,266669000,/map,-163.87730407714844,-385.446533203125,-10.947334289550781,0.020476609759129467,-0.00935906789421997,-0.16497402735575117,0.9860409152763122
2019/10/22/08:47:06.427679,4931,1571759226,367491000,/map,-163.42271423339844,-385.62890625,-10.936786651611328,0.021754725851923392,-0.009038681116718636,-0.17075955067879858,0.9850310705753158
2019/10/22/08:47:06.530282,4932,1571759226,468384000,/map,-162.95999145507812,-385.8124084472656,-10.924396514892578,0.0229745587927321,-0.008573264079488146,-0.17565923024371913,0.9841455703408347
2019/10/22/08:47:06.640487,4933,1571759226,569223000,/map,-162.49017333984375,-385.9963684082031,-10.911921501159668,0.022859539050427948,-0.008190732394922292,-0.18029698382725223,0.9833124381395937
2019/10/22/08:47:06.745418,4934,1571759226,670084000,/map,-162.03797912597656,-386.1971435546875,-10.89632511138916,0.023081729309713292,-0.007660584498845631,-0.18502764236054753,0.982432349212762
2019/10/22/08:47:06.819858,4935,1571759226,770949000,/map,-161.59799194335938,-386.38812255859375,-10.875924110412598,0.02234677952199672,-0.006985018295084675,-0.1901460000773221,0.9814766067609599
2019/10/22/08:47:06.941404,4936,1571759226,871806000,/map,-161.15081787109375,-386.5652770996094,-10.877668380737305,0.02286113589457883,-0.006721458811210489,-0.19506389520042763,0.9805010286819159
2019/10/22/08:47:07.033326,4937,1571759226,972667000,/map,-160.70333862304688,-386.77001953125,-10.866983413696289,0.023039377025301563,-0.006055997089798564,-0.20025160932754155,0.9794548509080262
2019/10/22/08:47:07.134334,4938,1571759227,73571000,/map,-160.2729949951172,-386.98089599609375,-10.85319995880127,0.023432289112363607,-0.005639232054483008,-0.20567032681820654,0.9783245083075871
2019/10/22/08:47:07.231577,4939,1571759227,174380000,/map,-159.8459014892578,-387.1904296875,-10.830731391906738,0.023536642022737954,-0.0042985196033841705,-0.2108876625262191,0.9772174491922155
2019/10/22/08:47:07.331587,4940,1571759227,275242000,/map,-159.42381286621094,-387.3889465332031,-10.818853378295898,0.02390440059952909,-0.003973701039497157,-0.21598862309504402,0.976095130622796
2019/10/22/08:47:07.454916,4941,1571759227,376094000,/map,-159.01571655273438,-387.6043395996094,-10.817683219909668,0.02374319107226441,-0.003720045191359194,-0.22107337148513054,0.9749610179702969
2019/10/22/08:47:07.541789,4942,1571759227,477109000,/map,-158.59878540039062,-387.8128662109375,-10.821592330932617,0.02441632573522483,-0.003064109529683551,-0.22652574861865601,0.9736942741349254
2019/10/22/08:47:07.635276,4943,1571759227,577832000,/map,-158.20265197753906,-388.03094482421875,-10.803242683410645,0.024182749484648075,-0.0023512422618961583,-0.2315538811008756,0.9725186200964535
2019/10/22/08:47:07.764786,4944,1571759227,678678000,/map,-157.84230041503906,-388.22894287109375,-10.80743408203125,0.024102458570383296,-0.0032023840596234667,-0.2366570688675644,0.9712889621437125
2019/10/22/08:47:07.843298,4945,1571759227,779541000,/map,-157.4626007080078,-388.4305419921875,-10.812873840332031,0.02525070328114922,-0.004003012835659671,-0.24255549630570788,0.9698006027446758
2019/10/22/08:47:07.954445,4946,1571759227,880419000,/map,-157.1006317138672,-388.6374206542969,-10.808159828186035,0.025745116657142627,-0.003617352400954121,-0.24800926086306374,0.9684087516416165
2019/10/22/08:47:08.045964,4947,1571759227,981262000,/map,-156.75283813476562,-388.8406066894531,-10.801663398742676,0.026332514266559068,-0.002536563594039031,-0.25301657277848666,0.9671001904854345
2019/10/22/08:47:08.160740,4948,1571759228,82131000,/map,-156.41510009765625,-389.05133056640625,-10.791637420654297,0.026941800070465736,-0.0024651743689633335,-0.25799697019617096,0.9657668588711718
2019/10/22/08:47:08.267567,4949,1571759228,182977000,/map,-156.07717895507812,-389.2445373535156,-10.788782119750977,0.02665964987884051,-0.0030204047213062326,-0.26217342655106524,0.9646477256668002
2019/10/22/08:47:08.361929,4950,1571759228,283845000,/map,-155.74533081054688,-389.4396057128906,-10.790252685546875,0.028684281787361213,-0.003510364838251483,-0.2646375763027469,0.9639148523213311
2019/10/22/08:47:08.443803,4951,1571759228,384701000,/map,-155.42861938476562,-389.627685546875,-10.789358139038086,0.029224177342037576,-0.004077108311070277,-0.2668606903160007,0.9632832899051912
2019/10/22/08:47:08.545001,4952,1571759228,485583000,/map,-155.1317901611328,-389.8151550292969,-10.793456077575684,0.030590576056749832,-0.004496838560858196,-0.26697189087119133,0.9632081834079974
2019/10/22/08:47:08.670761,4953,1571759228,586425000,/map,-154.8415069580078,-389.9932861328125,-10.782061576843262,0.03125539040233644,-0.004370792260654764,-0.2662089861536101,0.9633985532669637
2019/10/22/08:47:08.747322,4954,1571759228,687291000,/map,-154.56893920898438,-390.1567687988281,-10.779040336608887,0.031433504965990594,-0.004350686490314321,-0.26515939882994133,0.9636822606568827
2019/10/22/08:47:08.844787,4955,1571759228,788156000,/map,-154.31231689453125,-390.3172912597656,-10.771870613098145,0.031734998131197956,-0.0041154865390160295,-0.2638902341561168,0.9640217305544465
2019/10/22/08:47:08.958289,4956,1571759228,889038000,/map,-154.0612030029297,-390.4753723144531,-10.765952110290527,0.031122621121542425,-0.004613795668087626,-0.261812281645134,0.9646058389434656
2019/10/22/08:47:09.061913,4957,1571759228,989903000,/map,-153.827880859375,-390.62921142578125,-10.773242950439453,0.02982915299373813,-0.0048515265243751805,-0.2601359688620293,0.965098938983083
2019/10/22/08:47:09.172795,4958,1571759229,90728000,/map,-153.59933471679688,-390.76239013671875,-10.772937774658203,0.029855481758065103,-0.005162319062176495,-0.2587597624752996,0.9654664085273089
2019/10/22/08:47:09.256403,4959,1571759229,191647000,/map,-153.38485717773438,-390.891845703125,-10.769256591796875,0.03001690985509558,-0.005299623446472831,-0.25684631501322686,0.9659714641635141
2019/10/22/08:47:09.369201,4960,1571759229,292451000,/map,-153.18544006347656,-391.021728515625,-10.771408081054688,0.029866749047498743,-0.005275704104801606,-0.2546613588260293,0.9665545698864667
2019/10/22/08:47:09.473362,4961,1571759229,393409000,/map,-152.9933319091797,-391.1352844238281,-10.767682075500488,0.030941073604425946,-0.005372153041826134,-0.25292165037736725,0.9669769535548866
2019/10/22/08:47:09.564499,4962,1571759229,494177000,/map,-152.804931640625,-391.245849609375,-10.746792793273926,0.03102770402223522,-0.0052150352795972375,-0.25111879403591536,0.9674447975321842
2019/10/22/08:47:09.653667,4963,1571759229,595140000,/map,-152.64085388183594,-391.3453063964844,-10.748337745666504,0.03090712163826244,-0.005348703906747953,-0.24924981612857222,0.9679311289334734
2019/10/22/08:47:09.763972,4964,1571759229,695930000,/map,-152.4824981689453,-391.4339599609375,-10.747011184692383,0.0308761158657072,-0.005130358532799819,-0.24800605239244106,0.9682527267542759
2019/10/22/08:47:09.872739,4965,1571759229,796750000,/map,-152.3140411376953,-391.5368957519531,-10.742502212524414,0.029659398299337614,-0.005351882467200142,-0.2460984406770832,0.9687761531658831
2019/10/22/08:47:09.976656,4966,1571759229,897626000,/map,-152.15921020507812,-391.6259460449219,-10.748357772827148,0.029096897075683463,-0.005901324980747914,-0.24381351297008902,0.9693675855098639
2019/10/22/08:47:10.082936,4967,1571759229,998511000,/map,-152.00804138183594,-391.7003479003906,-10.751514434814453,0.02904202926120725,-0.005957377438487124,-0.24184882794848545,0.9698609253962087
2019/10/22/08:47:10.174106,4968,1571759230,99339000,/map,-151.8578643798828,-391.78759765625,-10.74899673461914,0.02894527388504732,-0.005739968870137344,-0.23978866315955913,0.9703765356279185
2019/10/22/08:47:10.279551,4969,1571759230,200196000,/map,-151.711181640625,-391.86798095703125,-10.746644973754883,0.027906361668317208,-0.005249244195573157,-0.2373666290716071,0.9710050276991332
2019/10/22/08:47:10.383403,4970,1571759230,301053000,/map,-151.55535888671875,-391.95751953125,-10.750256538391113,0.02738794606933522,-0.005371032840680949,-0.23532254970189564,0.9715165207129143
2019/10/22/08:47:10.492067,4971,1571759230,401936000,/map,-151.4058380126953,-392.04241943359375,-10.752838134765625,0.027781369653946893,-0.005943336425759009,-0.23332993478395542,0.9719825172224016
2019/10/22/08:47:10.587371,4972,1571759230,504537000,/map,-151.25331115722656,-392.1282043457031,-10.76714038848877,0.028272157238169445,-0.006427231655801061,-0.23101699541946802,0.9725176212520287
2019/10/22/08:47:10.704776,4973,1571759230,603671000,/map,-151.11521911621094,-392.2132263183594,-10.75046157836914,0.0282432979125381,-0.006096235980220314,-0.22917870203398513,0.9729554329792885
2019/10/22/08:47:10.789691,4974,1571759230,704497000,/map,-150.9590606689453,-392.2964782714844,-10.734618186950684,0.027142754718981952,-0.005577826337479507,-0.2269341624525803,0.9735158163232687
2019/10/22/08:47:10.907733,4975,1571759230,805362000,/map,-150.8041229248047,-392.3740234375,-10.738814353942871,0.025509568847327167,-0.0055425798420588755,-0.22480539138575803,0.9740539398358871
2019/10/22/08:47:10.980147,4976,1571759230,906228000,/map,-150.646728515625,-392.4527282714844,-10.746463775634766,0.025442516805361297,-0.005983825885871638,-0.2228966949868094,0.974491629276688
2019/10/22/08:47:11.083608,4977,1571759231,7125000,/map,-150.49984741210938,-392.5315246582031,-10.746971130371094,0.02598613793358836,-0.006275235895806277,-0.22065660216321742,0.9749851311540767
2019/10/22/08:47:11.195702,4978,1571759231,107936000,/map,-150.35569763183594,-392.6077575683594,-10.744284629821777,0.026552835063750235,-0.0067031824143634795,-0.21906544835901576,0.9753257628253549
2019/10/22/08:47:11.285019,4979,1571759231,208811000,/map,-150.20266723632812,-392.68951416015625,-10.737316131591797,0.026705967028852987,-0.006268661472260584,-0.21673162940565985,0.9758457337220715
2019/10/22/08:47:11.395846,4980,1571759231,309818000,/map,-150.05276489257812,-392.76763916015625,-10.734795570373535,0.026667502461511755,-0.006259406703552693,-0.2154631103757664,0.9761277130618642
2019/10/22/08:47:11.477538,4981,1571759231,410525000,/map,-149.8933563232422,-392.84710693359375,-10.733421325683594,0.026203916431458932,-0.006205966585251783,-0.21476289118912797,0.9762949048881093
2019/10/22/08:47:11.582331,4982,1571759231,511415000,/map,-149.7434844970703,-392.91693115234375,-10.73031997680664,0.02567934541277303,-0.006194791373847854,-0.21447525223529368,0.9763721431696076
2019/10/22/08:47:11.671894,4983,1571759231,612245000,/map,-149.59552001953125,-392.98809814453125,-10.726262092590332,0.02522978990696158,-0.005799484359699317,-0.2151649130767011,0.9762345434695024
2019/10/22/08:47:11.787725,4984,1571759231,713115000,/map,-149.4400634765625,-393.06365966796875,-10.716497421264648,0.025050439444589418,-0.0051968365838458265,-0.21673785938344756,0.9758945479318115
2019/10/22/08:47:11.895330,4985,1571759231,814007000,/map,-149.29669189453125,-393.1355285644531,-10.7174072265625,0.02518313847457229,-0.0049968861342929395,-0.21836163323135008,0.9755301316710155
2019/10/22/08:47:11.979492,4986,1571759231,916181000,/map,-149.13876342773438,-393.2162170410156,-10.711467742919922,0.025054432154909698,-0.005150816135006347,-0.21992681940056363,0.9751809773733746
2019/10/22/08:47:12.094503,4987,1571759232,15684000,/map,-148.986328125,-393.2924499511719,-10.707053184509277,0.026609048144697174,-0.004857005367409455,-0.22164795822168296,0.9747515327876397
2019/10/22/08:47:12.191069,4988,1571759232,116563000,/map,-148.8289031982422,-393.36676025390625,-10.705679893493652,0.026196843127382796,-0.005876679112006098,-0.22299939746417613,0.9744487974149223
2019/10/22/08:47:12.320503,4989,1571759232,217406000,/map,-148.66964721679688,-393.4573974609375,-10.70478630065918,0.0259972718827248,-0.005261171688732861,-0.2244194830749932,0.9741315914923764
2019/10/22/08:47:12.416487,4990,1571759232,320793000,/map,-148.5023193359375,-393.5423583984375,-10.69777774810791,0.02551909091469822,-0.005278316955590056,-0.22561094288699174,0.973868891493432
2019/10/22/08:47:12.498922,4991,1571759232,419147000,/map,-148.3428955078125,-393.6333923339844,-10.701949119567871,0.024994880185953958,-0.005159483430715936,-0.22685642880057738,0.97359375327036
2019/10/22/08:47:12.602953,4992,1571759232,520155000,/map,-148.1629180908203,-393.72503662109375,-10.690145492553711,0.024758714276570302,-0.005315511467088002,-0.22785401549831003,0.9733659635648403
2019/10/22/08:47:12.721180,4993,1571759232,620848000,/map,-147.9775390625,-393.8269958496094,-10.691656112670898,0.024583531653692498,-0.0050530872562607925,-0.22857469588819568,0.9732028178546502
2019/10/22/08:47:12.812985,4994,1571759232,721751000,/map,-147.79803466796875,-393.92999267578125,-10.678425788879395,0.02471845084427271,-0.004966603852195162,-0.22900507776907092,0.9730986616936723
2019/10/22/08:47:12.901088,4995,1571759232,822843000,/map,-147.60186767578125,-394.032958984375,-10.679405212402344,0.024955044575239324,-0.005425502369959719,-0.22905510784498928,0.9730783972755749
2019/10/22/08:47:13.013318,4996,1571759232,923511000,/map,-147.3933563232422,-394.1426696777344,-10.682336807250977,0.02528021172591592,-0.005816112696744205,-0.22888914817527597,0.9731067986484259
2019/10/22/08:47:13.105272,4997,1571759233,24336000,/map,-147.17172241210938,-394.2589111328125,-10.682271003723145,0.024945335655418677,-0.0062094443399013915,-0.2285963240680565,0.9731818399726745
2019/10/22/08:47:13.213001,4998,1571759233,125154000,/map,-146.9385528564453,-394.3867492675781,-10.681604385375977,0.024577805179006932,-0.006757069833994889,-0.22823424461701214,0.9732725225156329
2019/10/22/08:47:13.306170,4999,1571759233,226019000,/map,-146.69308471679688,-394.5129699707031,-10.68079662322998,0.024650507317097798,-0.007591445396877992,-0.22741147049117522,0.973457110269804
2019/10/22/08:47:13.420107,5000,1571759233,326878000,/map,-146.43792724609375,-394.6524963378906,-10.67255687713623,0.02484732077727801,-0.007730873291620125,-0.22648170343523286,0.9736677473642716
2019/10/22/08:47:13.523702,5001,1571759233,427732000,/map,-146.1673583984375,-394.7966003417969,-10.673897743225098,0.02538619124497618,-0.007442356133565058,-0.22511684484301414,0.9739725657312842
2019/10/22/08:47:13.622285,5002,1571759233,528592000,/map,-145.89047241210938,-394.9453430175781,-10.667549133300781,0.025704296916532306,-0.007448279712144793,-0.2231691488956228,0.9744123065882121
2019/10/22/08:47:13.711656,5003,1571759233,629447000,/map,-145.60000610351562,-395.0943298339844,-10.669693946838379,0.02526582694291381,-0.007719971338008162,-0.2213392054143284,0.9748389590993914
2019/10/22/08:47:13.826600,5004,1571759233,730318000,/map,-145.29869079589844,-395.248779296875,-10.661676406860352,0.024280235759888677,-0.007678632802790955,-0.21937169982011395,0.9753089592881622
2019/10/22/08:47:13.930449,5005,1571759233,831182000,/map,-144.97857666015625,-395.41375732421875,-10.663073539733887,0.02478117524167129,-0.00797558478375986,-0.21736301443105047,0.9757436155868229
2019/10/22/08:47:14.014065,5006,1571759233,932041000,/map,-144.64898681640625,-395.59002685546875,-10.645002365112305,0.025539774696990147,-0.00784879733057106,-0.21478039782744676,0.9762968283252662
2019/10/22/08:47:14.110724,5007,1571759234,32930000,/map,-144.30332946777344,-395.7512512207031,-10.648076057434082,0.026156768762742984,-0.007991424255347969,-0.21170374769591888,0.9769511163808383
2019/10/22/08:47:14.205174,5008,1571759234,133756000,/map,-143.93589782714844,-395.9253234863281,-10.63958740234375,0.026251054975881122,-0.008944058527067306,-0.20892599215269395,0.9775381402956766
2019/10/22/08:47:14.302641,5009,1571759234,234767000,/map,-143.55108642578125,-396.1080322265625,-10.625714302062988,0.026341779382098005,-0.008780111161023403,-0.20595109294616415,0.9781682716287957
2019/10/22/08:47:14.407101,5010,1571759234,335533000,/map,-143.1806182861328,-396.2793884277344,-10.61346435546875,0.027316405503640166,-0.008759082703240786,-0.20320251085913704,0.9787164206454804
2019/10/22/08:47:14.533671,5011,1571759234,436348000,/map,-142.77105712890625,-396.4635925292969,-10.599276542663574,0.027186102196969625,-0.008610734939413264,-0.20056008150142407,0.9792662685905613
2019/10/22/08:47:14.627854,5012,1571759234,537191000,/map,-142.37026977539062,-396.64935302734375,-10.605469703674316,0.02615937211620385,-0.008446278287540576,-0.19806075731195125,0.9798042069957608
2019/10/22/08:47:14.727914,5013,1571759234,638059000,/map,-141.96334838867188,-396.8359069824219,-10.586033821105957,0.02558866807154522,-0.00869787723626436,-0.1958248223103105,0.980266395407413
2019/10/22/08:47:14.833064,5014,1571759234,739022000,/map,-141.53956604003906,-397.01361083984375,-10.583273887634277,0.0253984480697174,-0.008426336941124945,-0.19356130862984255,0.9807231696472288
2019/10/22/08:47:14.936266,5015,1571759234,839792000,/map,-141.13031005859375,-397.1844177246094,-10.5729341506958,0.024475047056076307,-0.007831572557739724,-0.19163086867799867,0.981130597174806
2019/10/22/08:47:15.023795,5016,1571759234,940636000,/map,-140.71981811523438,-397.3692321777344,-10.564468383789062,0.023567956118938253,-0.007526119882500164,-0.1897841563035466,0.9815140768119636
2019/10/22/08:47:15.123363,5017,1571759235,41505000,/map,-140.3379364013672,-397.532958984375,-10.551839828491211,0.02425255332012841,-0.006964146162664706,-0.1879004072663753,0.9818639168819728
2019/10/22/08:47:15.231163,5018,1571759235,142363000,/map,-139.95652770996094,-397.6961975097656,-10.548911094665527,0.02489223998860283,-0.005736823887127365,-0.18683881968934288,0.9820584100231161
2019/10/22/08:47:15.308204,5019,1571759235,243496000,/map,-139.57925415039062,-397.8487854003906,-10.541189193725586,0.025427478116331385,-0.005743972028038446,-0.18543962746678572,0.9823098262294663
2019/10/22/08:47:15.401683,5020,1571759235,344084000,/map,-139.2154998779297,-398.0037536621094,-10.52998161315918,0.02504571578733939,-0.005169391133730799,-0.18435637730000534,0.9825266997210937
2019/10/22/08:47:15.499111,5021,1571759235,444942000,/map,-138.83810424804688,-398.15679931640625,-10.533108711242676,0.024351275155148403,-0.004777244846020302,-0.1833311889208192,0.9827379449776418
2019/10/22/08:47:15.616675,5022,1571759235,545801000,/map,-138.49417114257812,-398.30364990234375,-10.523214340209961,0.023696935029425194,-0.005087885885329855,-0.1824627610104322,0.9829139888779074
2019/10/22/08:47:15.715089,5023,1571759235,646666000,/map,-138.1399688720703,-398.4519958496094,-10.517108917236328,0.0227516649855361,-0.005296355544235162,-0.1817616690949553,0.9830651077147183
2019/10/22/08:47:15.804060,5024,1571759235,747794000,/map,-137.78347778320312,-398.5928649902344,-10.508346557617188,0.0233623744988903,-0.00419681871067114,-0.18082083202907,0.9832295829941237
2019/10/22/08:47:15.924386,5025,1571759235,848387000,/map,-137.4402313232422,-398.7259521484375,-10.504508972167969,0.02309680562335236,-0.004696787865760573,-0.1800869510294506,0.9833682768030791
